"PostalCode","Latitude","Longitude","TerritoryName","ProducerName","OpptyType","TotalAssets"
"63601",37.8212,-90.5439,"Unova","Samurott","Type A",5138
"74849",34.9846,-96.73597,"Unova","Eelektrik","Type A",2728
"43540",41.69545,-83.943,"Paldea","Fuecoco","Type A",9198
"81430",38.04013,-108.05764,"Hoenn","Shelgon","Type B",3691
"68058",41.00842,-96.2483,"Sinnoh","Froslass","Type C",7924
"78044",27.75613,-99.22748,"Kalos","Clauncher","Type C",8531
"11509",40.58872,-73.7286,"Galar","Runerigus","Type B",3217
"26411",39.18078,-80.70723,"Paldea","Gholdengo","Type B",3962
"51015",42.33936,-96.08107,"Sinnoh","Mamoswine","Type C",1238
"70669",30.24216,-93.27731,"Kalos","Florges","Type B",2971
"03824",43.11744,-70.91937,"Galar","Centiskorch","Type A",7070
"92161",32.8742,-117.23159,"Johto","Gligar","Type C",4691
"01360",42.67575,-72.446,"Galar","Stonjourner","Type A",5459
"51015",42.33936,-96.08107,"Sinnoh","Mamoswine","Type B",8535
"19512",40.35,-75.67937,"Galar","Impidimp","Type C",8873
"08046",40.02787,-74.88709,"Galar","Drizzile","Type C",8747
"19535",40.3394,-75.79537,"Galar","Spectrier","Type A",3779
"94070",37.49739,-122.27021,"Johto","Ursaring","Type A",5618
"17868",40.95536,-76.63098,"Galar","Carkol","Type A",9432
"37617",36.53155,-82.37248,"Paldea","Tarountula","Type C",1054
"17888",40.81931,-76.37306,"Galar","Drizzile","Type B",7079
"82945",41.72007,-108.9389,"Hoenn","Chimecho","Type A",4670
"72201",34.74725,-92.28053,"Unova","Gothitelle","Type A",3209
"74849",34.9846,-96.73597,"Unova","Ducklett","Type C",7092
"46107",39.71661,-86.09161,"Paldea","Armarouge","Type A",6050
"13136",42.60368,-75.84582,"Galar","Barraskewda","Type B",5124
"13774",41.96192,-75.17283,"Galar","Perrserker","Type A",5245
"70639",30.98235,-93.49793,"Kalos","Chespin","Type C",2308
"23954",37.10893,-78.38705,"Paldea","Iron Moth","Type B",2206
"57471",45.40967,-99.31359,"Sinnoh","Magnezone","Type C",6313
"98238",48.33563,-122.34444,"Kanto","Moltres","Type C",4210
"77506",29.71786,-95.19018,"Kalos","Bergmite","Type C",1583
"97883",45.14264,-117.64047,"Kanto","Hitmonchan","Type A",4158
"71654",33.62476,-91.37234,"Unova","Joltik","Type B",2463
"27410",36.11826,-79.89223,"Paldea","Finizen","Type A",1184
"34604",28.4781,-82.43322,"Alola","Grubbin","Type B",2717
"17076",40.62084,-77.30758,"Paldea","Klawf","Type C",6900
"64155",39.28031,-94.56801,"Unova","Pansear","Type A",8329
"83854",47.7267,-116.97511,"Kanto","Nidorina","Type C",4036
"22192",38.68358,-77.31821,"Paldea","Poltchageist","Type B",9473
"23954",37.10893,-78.38705,"Paldea","Iron Moth","Type C",9214
"98821",47.55199,-120.56155,"Kanto","Mankey","Type C",2151
"62262",38.9371,-89.26916,"Unova","Alomomola","Type C",9915
"10455",40.8148,-73.90862,"Galar","Raboot","Type A",8421
"68058",41.00842,-96.2483,"Sinnoh","Kricketot","Type C",1709
"08046",40.02787,-74.88709,"Galar","Cramorant","Type B",6198
"61753",40.63568,-88.78883,"Unova","Simisage","Type A",2199
"29849",33.10168,-81.23641,"Alola","Buzzwole","Type A",4356
"19512",40.35,-75.67937,"Galar","Glastrier","Type A",9652
"62262",38.9371,-89.26916,"Unova","Victini","Type A",9193
"97883",45.14264,-117.64047,"Kanto","Hitmonchan","Type B",1044
"26411",39.18078,-80.70723,"Paldea","Tinkatuff","Type C",2232
"95634",38.9123,-120.69443,"Johto","Skiploom","Type C",9905
"24350",36.81109,-81.01757,"Paldea","Brute Bonnet","Type A",8350
"13136",42.60368,-75.84582,"Galar","Eldegoss","Type B",4343
"82945",41.72007,-108.9389,"Hoenn","Chimecho","Type B",4452
"48067",42.49053,-83.13786,"Paldea","Maschiff","Type C",1015
"38108",35.1763,-89.96382,"Unova","Samurott","Type C",5047
"64155",39.28031,-94.56801,"Unova","Pansear","Type C",1538
"95404",38.46488,-122.65709,"Johto","Azumarill","Type A",7835
"21840",38.25814,-75.89276,"Galar","Obstagoon","Type B",3855
"48098",42.59903,-83.1789,"Paldea","Tinkatink","Type A",8902
"93285",35.72233,-118.50871,"Johto","Blissey","Type C",4064
"11509",40.58872,-73.7286,"Galar","Thievul","Type B",4357
"78375",27.38282,-98.16351,"Kalos","Spewpa","Type A",6994
"17322",39.85548,-76.53513,"Galar","Cinderace","Type B",4332
"94070",37.49739,-122.27021,"Johto","Ursaring","Type C",4747
"62443",38.95397,-88.62902,"Unova","Alomomola","Type A",8135
"28214",35.27177,-80.96847,"Paldea","Iron Boulder","Type C",3663
"57541",43.60001,-99.90895,"Sinnoh","Phione","Type A",1835
"17322",39.85548,-76.53513,"Galar","Cinderace","Type C",3583
"16344",41.47045,-79.684,"Paldea","Pawmot","Type C",8141
"22312",38.81685,-77.15372,"Paldea","Houndstone","Type B",1643
"12413",42.31338,-74.02628,"Galar","Dragapult","Type B",1997
"23954",37.10893,-78.38705,"Paldea","Veluza","Type A",5025
"42516",37.22247,-84.77881,"Paldea","Lechonk","Type B",4593
"67351",37.14066,-95.56698,"Unova","Cofagrigus","Type C",3452
"25154",38.11572,-81.70249,"Paldea","Iron Hands","Type A",7205
"78375",27.38282,-98.16351,"Kalos","Spewpa","Type C",2696
"55970",43.59681,-92.83118,"Sinnoh","Carnivine","Type B",6061
"22312",38.81685,-77.15372,"Paldea","Archaludon","Type A",5768
"62207",38.58327,-90.12544,"Unova","Tepig","Type B",3846
"61753",40.63568,-88.78883,"Unova","Cobalion","Type A",7886
"76904",31.28844,-100.41695,"Kalos","Slurpuff","Type A",2270
"38901",33.76275,-89.79799,"Unova","Gigalith","Type A",5560
"16344",41.47045,-79.684,"Paldea","Walking Wake","Type A",7337
"47573",38.74418,-87.322,"Paldea","Quaxwell","Type B",5378
"77445",30.09562,-96.06247,"Kalos","Vivillon","Type C",8606
"38901",33.76275,-89.79799,"Unova","Emolga","Type C",7098
"57541",43.60001,-99.90895,"Sinnoh","Pachirisu","Type B",7016
"28391",35.03045,-78.70009,"Paldea","Slither Wing","Type B",4194
"29849",33.10168,-81.23641,"Alola","Buzzwole","Type B",8562
"95404",38.46488,-122.65709,"Johto","Umbreon","Type B",6454
"62288",37.99267,-89.69106,"Unova","Fraxure","Type A",2870
"64840",37.01826,-94.33536,"Unova","Cubchoo","Type C",3042
"64473",39.97606,-95.08446,"Unova","Patrat","Type C",7059
"78108",29.57354,-98.22068,"Kalos","Hawlucha","Type C",5117
"62288",37.99267,-89.69106,"Unova","Maractus","Type C",1950
"34453",28.89276,-82.33663,"Alola","Passimian","Type B",7569
"78147",29.07375,-98.08017,"Kalos","Clauncher","Type C",1751
"68950",40.45586,-98.66413,"Unova","Emolga","Type C",1611
"10455",40.8148,-73.90862,"Galar","Corviknight","Type B",9967
"41759",37.23211,-83.02521,"Paldea","Meowscarada","Type B",4203
"83854",47.7267,-116.97511,"Kanto","Goldeen","Type C",2174
"17888",40.81931,-76.37306,"Galar","Applin","Type B",4222
"82945",41.72007,-108.9389,"Hoenn","Groudon","Type B",2626
"72201",34.74725,-92.28053,"Unova","Reshiram","Type A",3198
"79835",31.93555,-106.59491,"Hoenn","Bagon","Type A",7431
"40216",38.18707,-85.83738,"Paldea","Scream Tail","Type A",5381
"22192",38.68358,-77.31821,"Paldea","Frigibax","Type A",4037
"83854",47.7267,-116.97511,"Kanto","Lapras","Type A",8127
"44418",41.30692,-80.60465,"Paldea","Crocalor","Type B",2699
"80475",39.43012,-105.59234,"Hoenn","Poochyena","Type C",7336
"63601",37.8212,-90.5439,"Unova","Sandile","Type C",4907
"34604",28.4781,-82.43322,"Alola","Torracat","Type B",8726
"95404",38.46488,-122.65709,"Johto","Umbreon","Type C",9150
"74753",33.90777,-96.53496,"Unova","Klinklang","Type A",8732
"68381",40.07979,-96.48176,"Unova","Lilligant","Type A",6258
"23954",37.10893,-78.38705,"Paldea","Iron Moth","Type A",8540
"98238",48.33563,-122.34444,"Kanto","Spearow","Type A",5887
"56051",43.53649,-93.70868,"Sinnoh","Arceus","Type C",4503
"38108",35.1763,-89.96382,"Unova","Samurott","Type A",5869
"39664",31.32894,-90.68252,"Alola","Pyukumuku","Type B",6597
"59713",46.67973,-112.61228,"Kanto","Venomoth","Type C",1079
"08046",40.02787,-74.88709,"Galar","Drizzile","Type A",5863
"40216",38.18707,-85.83738,"Paldea","Houndstone","Type B",4811
"30461",32.5072,-81.71941,"Alola","Salandit","Type A",7856
"67124",37.63644,-98.77236,"Unova","Reuniclus","Type A",1153
"40216",38.18707,-85.83738,"Paldea","Scream Tail","Type B",4255
"17322",39.85548,-76.53513,"Galar","Cinderace","Type A",6649
"74753",33.90777,-96.53496,"Unova","Leavanny","Type A",4348
"76559",31.07987,-97.61079,"Kalos","Inkay","Type A",4962
"72201",34.74725,-92.28053,"Unova","Reshiram","Type C",6491
"70669",30.24216,-93.27731,"Kalos","Quilladin","Type A",9035
"22312",38.81685,-77.15372,"Paldea","Okidogi","Type B",9658
"95949",39.102,-121.13343,"Johto","Bellossom","Type B",9384
"32352",30.6499,-84.58535,"Alola","Cosmog","Type A",8030
"16344",41.47045,-79.684,"Paldea","Pawmot","Type B",7736
"27410",36.11826,-79.89223,"Paldea","Raging Bolt","Type A",5844
"44111",41.45775,-81.78986,"Paldea","Pawmo","Type A",9060
"79835",31.93555,-106.59491,"Hoenn","Bagon","Type B",7460
"59713",46.67973,-112.61228,"Kanto","Fearow","Type C",2258
"16344",41.47045,-79.684,"Paldea","Chi-Yu","Type B",9746
"22192",38.68358,-77.31821,"Paldea","Frigibax","Type C",8620
"28391",35.03045,-78.70009,"Paldea","Dondozo","Type B",5629
"77445",30.09562,-96.06247,"Kalos","Phantump","Type A",1446
"37692",36.18456,-82.30413,"Paldea","Meowscarada","Type A",6384
"78375",27.38282,-98.16351,"Kalos","Avalugg","Type A",5862
"51015",42.33936,-96.08107,"Sinnoh","Bastiodon","Type C",9455
"44111",41.45775,-81.78986,"Paldea","Crocalor","Type A",4143
"50578",43.30081,-94.54775,"Sinnoh","Croagunk","Type A",5275
"85706",32.14783,-110.93541,"Hoenn","Blaziken","Type C",2294
"98238",48.33563,-122.34444,"Kanto","Vileplume","Type C",6304
"53143",42.56109,-87.83038,"Sinnoh","Vespiquen","Type C",4456
"58758",47.76643,-100.10424,"Sinnoh","Pachirisu","Type C",4322
"21840",38.25814,-75.89276,"Galar","Raboot","Type A",3688
"95627",38.72936,-122.00959,"Johto","Delibird","Type B",6650
"43540",41.69545,-83.943,"Paldea","Fuecoco","Type C",6870
"67124",37.63644,-98.77236,"Unova","Rufflet","Type C",9445
"50578",43.30081,-94.54775,"Sinnoh","Croagunk","Type B",8869
"04772",47.23375,-68.32732,"Galar","Cursola","Type A",3805
"83854",47.7267,-116.97511,"Kanto","Parasect","Type B",2678
"95563",40.84248,-123.51225,"Johto","Stantler","Type B",1109
"36069",32.0905,-86.16008,"Alola","Blacephalon","Type A",8028
"74849",34.9846,-96.73597,"Unova","Eelektrik","Type B",3325
"58458",46.36921,-98.29257,"Sinnoh","Mothim","Type C",8313
"74058",36.35499,-96.75909,"Unova","Solosis","Type B",3666
"13774",41.96192,-75.17283,"Galar","Sandaconda","Type C",5431
"81430",38.04013,-108.05764,"Hoenn","Shelgon","Type C",8863
"93528",35.37194,-117.64193,"Johto","Corsola","Type B",1101
"50127",41.78122,-93.21129,"Sinnoh","Gabite","Type A",7578
"85706",32.14783,-110.93541,"Hoenn","Kecleon","Type B",5871
"34453",28.89276,-82.33663,"Alola","Kommo-o","Type B",2893
"48098",42.59903,-83.1789,"Paldea","Farigiraf","Type C",7274
"41141",38.54381,-83.13357,"Paldea","Sinistcha","Type C",1800
"57471",45.40967,-99.31359,"Sinnoh","Skuntank","Type B",4145
"57541",43.60001,-99.90895,"Sinnoh","Piplup","Type C",3509
"49755",45.63886,-84.80524,"Paldea","Hydrapple","Type C",8728
"25154",38.11572,-81.70249,"Paldea","Flamigo","Type C",2146
"63601",37.8212,-90.5439,"Unova","Samurott","Type B",3790
"30678",33.44626,-83.07598,"Alola","Torracat","Type A",5131
"08012",39.78409,-75.05586,"Galar","Wooloo","Type B",2434
"12123",42.52239,-73.60636,"Galar","Dubwool","Type C",4224
"70639",30.98235,-93.49793,"Kalos","Froakie","Type A",6848
"47243",38.67214,-85.48177,"Paldea","Wattrel","Type C",9037
"01757",42.15723,-71.51978,"Galar","Chewtle","Type B",9882
"17888",40.81931,-76.37306,"Galar","Carkol","Type C",2523
"13685",43.93343,-76.09399,"Galar","Gossifleur","Type C",4230
"72444",36.4266,-90.86106,"Unova","Palpitoad","Type A",7514
"95634",38.9123,-120.69443,"Johto","Sunflora","Type B",9373
"47573",38.74418,-87.322,"Paldea","Flittle","Type C",1068
"29686",34.92858,-83.04541,"Paldea","Garganacl","Type A",7549
"05829",44.95349,-72.0759,"Galar","Grapploct","Type C",3015
"51015",42.33936,-96.08107,"Sinnoh","Mamoswine","Type A",1141
"44418",41.30692,-80.60465,"Paldea","Scream Tail","Type A",3609
"79835",31.93555,-106.59491,"Hoenn","Azurill","Type C",8388
"38108",35.1763,-89.96382,"Unova","Samurott","Type B",9627
"39664",31.32894,-90.68252,"Alola","Pyukumuku","Type C",2724
"17868",40.95536,-76.63098,"Galar","Flapple","Type B",6389
"44881",40.8703,-82.87687,"Paldea","Gholdengo","Type A",7595
"46107",39.71661,-86.09161,"Paldea","Armarouge","Type C",3545
"22192",38.68358,-77.31821,"Paldea","Skeledirge","Type B",7636
"18709",41.28635,-75.89674,"Galar","Hatenna","Type A",9306
"21840",38.25814,-75.89276,"Galar","Raboot","Type B",2925
"54513",45.58246,-90.11986,"Sinnoh","Bidoof","Type A",1960
"35022",33.33107,-86.95959,"Alola","Mudsdale","Type C",6925
"62262",38.9371,-89.26916,"Unova","Alomomola","Type A",9015
"77445",30.09562,-96.06247,"Kalos","Talonflame","Type B",5432
"57541",43.60001,-99.90895,"Sinnoh","Bibarel","Type B",1685
"17076",40.62084,-77.30758,"Paldea","Rellor","Type B",8737
"78565",26.24453,-98.561,"Kalos","Amaura","Type B",6054
"43540",41.69545,-83.943,"Paldea","Bellibolt","Type C",4968
"47243",38.67214,-85.48177,"Paldea","Okidogi","Type A",8160
"19535",40.3394,-75.79537,"Galar","Drizzile","Type C",7086
"72201",34.74725,-92.28053,"Unova","Munna","Type B",9605
"68950",40.45586,-98.66413,"Unova","Emolga","Type B",6301
"26411",39.18078,-80.70723,"Paldea","Brute Bonnet","Type B",5000
"77506",29.71786,-95.19018,"Kalos","Helioptile","Type B",1993
"53817",42.94028,-90.97234,"Sinnoh","Spiritomb","Type C",3063
"06263",41.83738,-71.90444,"Galar","Skwovet","Type C",8247
"67216",37.6089,-97.3143,"Unova","Whimsicott","Type A",6180
"17888",40.81931,-76.37306,"Galar","Carkol","Type A",9969
"28523",35.20662,-77.29541,"Paldea","Lechonk","Type A",7324
"30678",33.44626,-83.07598,"Alola","Torracat","Type B",9920
"13136",42.60368,-75.84582,"Galar","Rolycoly","Type B",6579
"84629",39.76574,-111.44752,"Hoenn","Linoone","Type C",9579
"31562",30.47778,-82.10755,"Alola","Zygarde10% Forme","Type B",1182
"70420",30.48767,-89.95907,"Alola","Xurkitree","Type A",9067
"62288",37.99267,-89.69106,"Unova","Litwick","Type C",5807
"98238",48.33563,-122.34444,"Kanto","Vileplume","Type B",4935
"95404",38.46488,-122.65709,"Johto","Spinarak","Type C",1916
"46732",41.37697,-85.62169,"Paldea","Lokix","Type C",1036
"48067",42.49053,-83.13786,"Paldea","Maschiff","Type A",2133
"57471",45.40967,-99.31359,"Sinnoh","Magnezone","Type A",4966
"74753",33.90777,-96.53496,"Unova","Joltik","Type A",5262
"85742",32.3898,-111.05113,"Hoenn","Duskull","Type B",3528
"30678",33.44626,-83.07598,"Alola","Bewear","Type A",7080
"28214",35.27177,-80.96847,"Paldea","Iron Treads","Type C",2250
"07878",40.87152,-74.47826,"Galar","Cramorant","Type A",1419
"31220",32.87813,-83.8209,"Alola","Fomantis","Type B",9882
"35022",33.33107,-86.95959,"Alola","Naganadel","Type C",3392
"48067",42.49053,-83.13786,"Paldea","Revavroom","Type A",3560
"36069",32.0905,-86.16008,"Alola","Comfey","Type B",9943
"78147",29.07375,-98.08017,"Kalos","Clauncher","Type A",6056
"55970",43.59681,-92.83118,"Sinnoh","Happiny","Type C",4134
"51015",42.33936,-96.08107,"Sinnoh","Palkia","Type A",3061
"68381",40.07979,-96.48176,"Unova","Reshiram","Type B",9947
"04772",47.23375,-68.32732,"Galar","Cursola","Type A",8738
"74849",34.9846,-96.73597,"Unova","Ducklett","Type A",5715
"80475",39.43012,-105.59234,"Hoenn","Gardevoir","Type B",9761
"04772",47.23375,-68.32732,"Galar","Cursola","Type B",9099
"78375",27.38282,-98.16351,"Kalos","Avalugg","Type C",8724
"53143",42.56109,-87.83038,"Sinnoh","Vespiquen","Type B",5566
"71654",33.62476,-91.37234,"Unova","Zoroark","Type B",1079
"25154",38.11572,-81.70249,"Paldea","Flamigo","Type B",6311
"12123",42.52239,-73.60636,"Galar","Dracovish","Type B",1128
"33983",27.00712,-82.01508,"Alola","Silvally","Type A",6641
"62443",38.95397,-88.62902,"Unova","Archen","Type B",3814
"57541",43.60001,-99.90895,"Sinnoh","Bibarel","Type A",6321
"29686",34.92858,-83.04541,"Paldea","Farigiraf","Type C",7902
"34604",28.4781,-82.43322,"Alola","Togedemaru","Type C",8083
"04772",47.23375,-68.32732,"Galar","Clobbopus","Type A",5810
"94070",37.49739,-122.27021,"Johto","Ursaring","Type B",4403
"62262",38.9371,-89.26916,"Unova","Chandelure","Type B",7151
"43540",41.69545,-83.943,"Paldea","Bellibolt","Type B",7856
"32352",30.6499,-84.58535,"Alola","Cosmog","Type B",9262
"78375",27.38282,-98.16351,"Kalos","Flabébé","Type C",6649
"62207",38.58327,-90.12544,"Unova","Kyurem","Type C",9861
"85706",32.14783,-110.93541,"Hoenn","Blaziken","Type B",8338
"22192",38.68358,-77.31821,"Paldea","Poltchageist","Type A",6191
"13774",41.96192,-75.17283,"Galar","Overqwil","Type A",7526
"97883",45.14264,-117.64047,"Kanto","Hitmonchan","Type C",1806
"95627",38.72936,-122.00959,"Johto","Piloswine","Type B",1751
"13774",41.96192,-75.17283,"Galar","Perrserker","Type B",1381
"85742",32.3898,-111.05113,"Hoenn","Azurill","Type B",2658
"45424",39.84695,-84.11032,"Paldea","Pecharunt","Type A",2522
"64840",37.01826,-94.33536,"Unova","Cubchoo","Type B",2761
"39664",31.32894,-90.68252,"Alola","Primarina","Type B",3439
"67216",37.6089,-97.3143,"Unova","Whimsicott","Type C",7627
"13348",42.70202,-75.06398,"Galar","Drizzile","Type B",5306
"41759",37.23211,-83.02521,"Paldea","Maschiff","Type B",8172
"74058",36.35499,-96.75909,"Unova","Solosis","Type C",4401
"59713",46.67973,-112.61228,"Kanto","Fearow","Type A",9702
"82945",41.72007,-108.9389,"Hoenn","Metang","Type A",8924
"19512",40.35,-75.67937,"Galar","Impidimp","Type B",3204
"62288",37.99267,-89.69106,"Unova","Maractus","Type B",4535
"84629",39.76574,-111.44752,"Hoenn","Minun","Type A",8284
"28214",35.27177,-80.96847,"Paldea","Tandemaus","Type C",9548
"27410",36.11826,-79.89223,"Paldea","Finizen","Type C",5339
"31562",30.47778,-82.10755,"Alola","Gumshoos","Type A",1626
"01092",42.20008,-72.23715,"Galar","Rillaboom","Type C",7731
"72201",34.74725,-92.28053,"Unova","Reshiram","Type B",5074
"97883",45.14264,-117.64047,"Kanto","Charmander","Type A",1393
"42516",37.22247,-84.77881,"Paldea","Wo-Chien","Type B",6362
"12123",42.52239,-73.60636,"Galar","Silicobra","Type C",9297
"49755",45.63886,-84.80524,"Paldea","Arctibax","Type B",2184
"44111",41.45775,-81.78986,"Paldea","Crocalor","Type B",5640
"17868",40.95536,-76.63098,"Galar","Flapple","Type A",9581
"12123",42.52239,-73.60636,"Galar","Dracozolt","Type A",7518
"55970",43.59681,-92.83118,"Sinnoh","Happiny","Type A",6718
"25154",38.11572,-81.70249,"Paldea","Iron Hands","Type B",8076
"35183",33.00675,-86.35706,"Alola","Sandygast","Type B",1382
"68950",40.45586,-98.66413,"Unova","Blitzle","Type B",4227
"54107",44.70068,-88.44436,"Sinnoh","Purugly","Type A",8825
"78375",27.38282,-98.16351,"Kalos","Avalugg","Type A",8019
"08012",39.78409,-75.05586,"Galar","Wooloo","Type A",4857
"95634",38.9123,-120.69443,"Johto","Skiploom","Type B",5206
"17076",40.62084,-77.30758,"Paldea","Hydrapple","Type B",5729
"85706",32.14783,-110.93541,"Hoenn","Kecleon","Type C",1415
"93285",35.72233,-118.50871,"Johto","Flaaffy","Type B",2994
"47243",38.67214,-85.48177,"Paldea","Wattrel","Type A",4472
"18709",41.28635,-75.89674,"Galar","Boltund","Type B",9140
"74058",36.35499,-96.75909,"Unova","Excadrill","Type A",4776
"64473",39.97606,-95.08446,"Unova","Patrat","Type B",1065
"08046",40.02787,-74.88709,"Galar","Appletun","Type A",2630
"34604",28.4781,-82.43322,"Alola","Torracat","Type A",7802
"13136",42.60368,-75.84582,"Galar","Wooloo","Type B",1500
"46107",39.71661,-86.09161,"Paldea","Armarouge","Type B",5089
"63601",37.8212,-90.5439,"Unova","Oshawott","Type C",5081
"44881",40.8703,-82.87687,"Paldea","Gholdengo","Type B",2840
"35183",33.00675,-86.35706,"Alola","Sandygast","Type A",5187
"28214",35.27177,-80.96847,"Paldea","Tandemaus","Type A",3226
"17888",40.81931,-76.37306,"Galar","Drizzile","Type A",1880
"16344",41.47045,-79.684,"Paldea","Cetoddle","Type A",8595
"63601",37.8212,-90.5439,"Unova","Oshawott","Type A",9844
"17076",40.62084,-77.30758,"Paldea","Quaxwell","Type C",1921
"29686",34.92858,-83.04541,"Paldea","Farigiraf","Type B",3186
"06263",41.83738,-71.90444,"Galar","Arctovish","Type C",8564
"77506",29.71786,-95.19018,"Kalos","Helioptile","Type A",2208
"04772",47.23375,-68.32732,"Galar","Pincurchin","Type B",4403
"67124",37.63644,-98.77236,"Unova","Reuniclus","Type B",5778
"07878",40.87152,-74.47826,"Galar","Dracovish","Type B",8813
"16344",41.47045,-79.684,"Paldea","Cetoddle","Type B",6682
"87552",35.67026,-105.61382,"Hoenn","Vibrava","Type A",9572
"84629",39.76574,-111.44752,"Hoenn","Minun","Type B",6003
"93285",35.72233,-118.50871,"Johto","Blissey","Type A",4938
"16321",41.56835,-79.40084,"Paldea","Finizen","Type A",2119
"19535",40.3394,-75.79537,"Galar","Drizzile","Type A",6431
"44418",41.30692,-80.60465,"Paldea","Scream Tail","Type B",3352
"30461",32.5072,-81.71941,"Alola","Gumshoos","Type B",3652
"07878",40.87152,-74.47826,"Galar","Dracovish","Type C",3264
"67446",39.47442,-98.32363,"Unova","Simisage","Type A",2904
"56650",47.9979,-94.56351,"Sinnoh","Bronzor","Type C",7333
"18709",41.28635,-75.89674,"Galar","Rillaboom","Type A",2607
"72201",34.74725,-92.28053,"Unova","Samurott","Type B",6110
"44111",41.45775,-81.78986,"Paldea","Pawmo","Type B",4126
"95563",40.84248,-123.51225,"Johto","Ledyba","Type B",8395
"10455",40.8148,-73.90862,"Galar","Corviknight","Type C",4067
"56373",45.85456,-94.23789,"Sinnoh","Drapion","Type C",8661
"74753",33.90777,-96.53496,"Unova","Leavanny","Type B",8417
"52411",42.05093,-91.72723,"Sinnoh","Mothim","Type A",7813
"50578",43.30081,-94.54775,"Sinnoh","Gliscor","Type A",2045
"28523",35.20662,-77.29541,"Paldea","Fidough","Type C",8929
"18709",41.28635,-75.89674,"Galar","Boltund","Type A",9813
"62443",38.95397,-88.62902,"Unova","Alomomola","Type C",6391
"81430",38.04013,-108.05764,"Hoenn","Cradily","Type A",7333
"12413",42.31338,-74.02628,"Galar","Centiskorch","Type B",6559
"84629",39.76574,-111.44752,"Hoenn","Linoone","Type A",7789
"46732",41.37697,-85.62169,"Paldea","Pawmo","Type A",5775
"20714",38.71813,-76.53987,"Galar","Sneasler","Type C",9623
"62863",38.41575,-87.85526,"Paldea","Fuecoco","Type A",6247
"78044",27.75613,-99.22748,"Kalos","Vivillon","Type A",2276
"95634",38.9123,-120.69443,"Johto","Kingdra","Type B",1657
"62443",38.95397,-88.62902,"Unova","Darumaka","Type B",2962
"25154",38.11572,-81.70249,"Paldea","Flamigo","Type A",3685
"44881",40.8703,-82.87687,"Paldea","Greavard","Type A",5019
"50127",41.78122,-93.21129,"Sinnoh","Mime Jr.","Type B",8357
"26763",39.4789,-78.69316,"Paldea","Clodsire","Type B",8086
"59724",44.67716,-112.79359,"Kanto","Metapod","Type A",3840
"78108",29.57354,-98.22068,"Kalos","Hawlucha","Type B",5679
"72201",34.74725,-92.28053,"Unova","Samurott","Type A",1351
"78375",27.38282,-98.16351,"Kalos","Flabébé","Type B",2237
"95627",38.72936,-122.00959,"Johto","Piloswine","Type A",9818
"54107",44.70068,-88.44436,"Sinnoh","Bibarel","Type C",1555
"63601",37.8212,-90.5439,"Unova","Sandile","Type A",9495
"52411",42.05093,-91.72723,"Sinnoh","Heatran","Type A",5263
"74753",33.90777,-96.53496,"Unova","Joltik","Type B",5999
"95627",38.72936,-122.00959,"Johto","Noctowl","Type A",5208
"98821",47.55199,-120.56155,"Kanto","Mr. Mime","Type A",3046
"64155",39.28031,-94.56801,"Unova","Scolipede","Type A",7104
"27410",36.11826,-79.89223,"Paldea","Finizen","Type B",9833
"18709",41.28635,-75.89674,"Galar","Pincurchin","Type B",4656
"76904",31.28844,-100.41695,"Kalos","Pyroar","Type B",6029
"74753",33.90777,-96.53496,"Unova","Patrat","Type B",3892
"19512",40.35,-75.67937,"Galar","Impidimp","Type A",7935
"74753",33.90777,-96.53496,"Unova","Patrat","Type A",5168
"74849",34.9846,-96.73597,"Unova","Ducklett","Type B",5608
"85742",32.3898,-111.05113,"Hoenn","Duskull","Type A",5818
"95949",39.102,-121.13343,"Johto","Bellossom","Type C",3826
"18709",41.28635,-75.89674,"Galar","Rillaboom","Type B",4475
"93285",35.72233,-118.50871,"Johto","Ho-oh","Type A",1905
"34604",28.4781,-82.43322,"Alola","Torracat","Type C",6404
"47573",38.74418,-87.322,"Paldea","Dondozo","Type B",2614
"95563",40.84248,-123.51225,"Johto","Ledyba","Type A",4661
"30461",32.5072,-81.71941,"Alola","Blacephalon","Type B",7062
"10455",40.8148,-73.90862,"Galar","Raboot","Type B",2457
"95634",38.9123,-120.69443,"Johto","Kingdra","Type A",4950
"57471",45.40967,-99.31359,"Sinnoh","Skuntank","Type C",3427
"22192",38.68358,-77.31821,"Paldea","Skeledirge","Type A",2367
"26763",39.4789,-78.69316,"Paldea","Clodsire","Type C",1814
"83854",47.7267,-116.97511,"Kanto","Lapras","Type C",8490
"08012",39.78409,-75.05586,"Galar","Flapple","Type A",1782
"67351",37.14066,-95.56698,"Unova","Virizion","Type C",5566
"26411",39.18078,-80.70723,"Paldea","Tinkatuff","Type B",1109
"77445",30.09562,-96.06247,"Kalos","Vivillon","Type B",1205
"68950",40.45586,-98.66413,"Unova","Blitzle","Type C",5124
"10025",40.79825,-73.96831,"Galar","Barraskewda","Type C",3440
"53143",42.56109,-87.83038,"Sinnoh","Vespiquen","Type A",7123
"67351",37.14066,-95.56698,"Unova","Whimsicott","Type B",7416
"78044",27.75613,-99.22748,"Kalos","Clauncher","Type B",9535
"25978",37.62861,-80.94138,"Paldea","Flutter Mane","Type A",5312
"83854",47.7267,-116.97511,"Kanto","Parasect","Type C",4968
"64840",37.01826,-94.33536,"Unova","Lillipup","Type A",8603
"82945",41.72007,-108.9389,"Hoenn","Groudon","Type C",3036
"17868",40.95536,-76.63098,"Galar","Carkol","Type B",3564
"93285",35.72233,-118.50871,"Johto","Ho-oh","Type B",4552
"68058",41.00842,-96.2483,"Sinnoh","Bonsly","Type B",8233
"72201",34.74725,-92.28053,"Unova","Samurott","Type C",6191
"58758",47.76643,-100.10424,"Sinnoh","Rotom","Type B",1421
"67351",37.14066,-95.56698,"Unova","Cofagrigus","Type A",6256
"94070",37.49739,-122.27021,"Johto","Hoothoot","Type A",5925
"62207",38.58327,-90.12544,"Unova","Kyurem","Type A",1004
"44864",40.66748,-82.31871,"Paldea","Mabosstiff","Type B",1351
"98821",47.55199,-120.56155,"Kanto","Mankey","Type A",9511
"95404",38.46488,-122.65709,"Johto","Spinarak","Type B",5205
"40216",38.18707,-85.83738,"Paldea","Houndstone","Type C",3417
"98821",47.55199,-120.56155,"Kanto","Mr. Mime","Type C",8888
"51015",42.33936,-96.08107,"Sinnoh","Cherrim","Type A",3675
"78147",29.07375,-98.08017,"Kalos","Spritzee","Type C",6888
"03824",43.11744,-70.91937,"Galar","Rillaboom","Type A",8965
"11509",40.58872,-73.7286,"Galar","Runerigus","Type C",5232
"93528",35.37194,-117.64193,"Johto","Unown","Type B",8197
"04622",44.75555,-67.95143,"Galar","Runerigus","Type C",5079
"87035",34.95116,-105.90273,"Hoenn","Crawdaunt","Type B",2070
"28391",35.03045,-78.70009,"Paldea","Dondozo","Type A",7988
"97883",45.14264,-117.64047,"Kanto","Charmander","Type C",4068
"13774",41.96192,-75.17283,"Galar","Perrserker","Type C",6319
"62443",38.95397,-88.62902,"Unova","Archen","Type C",4130
"83854",47.7267,-116.97511,"Kanto","Parasect","Type A",5115
"87552",35.67026,-105.61382,"Hoenn","Carvanha","Type A",1685
"93528",35.37194,-117.64193,"Johto","Unown","Type C",7860
"22312",38.81685,-77.15372,"Paldea","Toedscool","Type A",5540
"13774",41.96192,-75.17283,"Galar","Arrokuda","Type A",6039
"95634",38.9123,-120.69443,"Johto","Kingdra","Type C",1063
"13774",41.96192,-75.17283,"Galar","Overqwil","Type B",5274
"62288",37.99267,-89.69106,"Unova","Litwick","Type B",2228
"49755",45.63886,-84.80524,"Paldea","Hydrapple","Type A",7620
"54513",45.58246,-90.11986,"Sinnoh","Probopass","Type C",7556
"35022",33.33107,-86.95959,"Alola","Mudsdale","Type B",4329
"59724",44.67716,-112.79359,"Kanto","Metapod","Type B",2997
"58458",46.36921,-98.29257,"Sinnoh","Mothim","Type B",6970
"17888",40.81931,-76.37306,"Galar","Stonjourner","Type C",5754
"89044",35.93986,-115.05632,"Johto","Hitmontop","Type B",6695
"40216",38.18707,-85.83738,"Paldea","Scream Tail","Type C",9493
"85742",32.3898,-111.05113,"Hoenn","Azurill","Type C",5896
"30461",32.5072,-81.71941,"Alola","Blacephalon","Type A",2599
"80475",39.43012,-105.59234,"Hoenn","Gardevoir","Type C",3431
"36069",32.0905,-86.16008,"Alola","Blacephalon","Type C",5924
"26411",39.18078,-80.70723,"Paldea","Tinkatuff","Type A",6312
"36069",32.0905,-86.16008,"Alola","Tapu Lele","Type C",8496
"63601",37.8212,-90.5439,"Unova","Samurott","Type C",3214
"32352",30.6499,-84.58535,"Alola","Meltan","Type C",7758
"54513",45.58246,-90.11986,"Sinnoh","Bibarel","Type C",9666
"17076",40.62084,-77.30758,"Paldea","Rellor","Type A",4136
"68381",40.07979,-96.48176,"Unova","Lilligant","Type C",1303
"67124",37.63644,-98.77236,"Unova","Reuniclus","Type C",4151
"08012",39.78409,-75.05586,"Galar","Flapple","Type C",2133
"45424",39.84695,-84.11032,"Paldea","Bombirdier","Type C",3890
"16321",41.56835,-79.40084,"Paldea","Finizen","Type C",9462
"34453",28.89276,-82.33663,"Alola","Passimian","Type C",7337
"11509",40.58872,-73.7286,"Galar","Arrokuda","Type B",1544
"77506",29.71786,-95.19018,"Kalos","Bergmite","Type A",8928
"82945",41.72007,-108.9389,"Hoenn","Groudon","Type A",5938
"62443",38.95397,-88.62902,"Unova","Archen","Type A",4549
"41759",37.23211,-83.02521,"Paldea","Maschiff","Type C",8559
"57471",45.40967,-99.31359,"Sinnoh","Magnezone","Type B",4449
"37692",36.18456,-82.30413,"Paldea","Meowscarada","Type C",9298
"36069",32.0905,-86.16008,"Alola","Type: Null","Type A",1580
"04772",47.23375,-68.32732,"Galar","Pincurchin","Type C",5789
"83854",47.7267,-116.97511,"Kanto","Nidorina","Type A",5255
"52411",42.05093,-91.72723,"Sinnoh","Heatran","Type C",9242
"41141",38.54381,-83.13357,"Paldea","Iron Valiant","Type B",7116
"80475",39.43012,-105.59234,"Hoenn","Poochyena","Type B",9525
"48168",42.40559,-83.54051,"Paldea","Fuecoco","Type C",4568
"97883",45.14264,-117.64047,"Kanto","Pikachu","Type A",7885
"45424",39.84695,-84.11032,"Paldea","Iron Boulder","Type A",2528
"59724",44.67716,-112.79359,"Kanto","Nidoking","Type B",3677
"94070",37.49739,-122.27021,"Johto","Hoothoot","Type B",2690
"84629",39.76574,-111.44752,"Hoenn","Cacnea","Type B",2732
"51015",42.33936,-96.08107,"Sinnoh","Palkia","Type C",6852
"95563",40.84248,-123.51225,"Johto","Stantler","Type C",2283
"19512",40.35,-75.67937,"Galar","Glastrier","Type C",5772
"54107",44.70068,-88.44436,"Sinnoh","Purugly","Type B",5273
"77445",30.09562,-96.06247,"Kalos","Vivillon","Type C",7243
"01092",42.20008,-72.23715,"Galar","Rillaboom","Type A",8031
"93285",35.72233,-118.50871,"Johto","Blissey","Type B",7607
"06263",41.83738,-71.90444,"Galar","Arctovish","Type A",4379
"22576",37.69398,-76.43277,"Galar","Dottler","Type C",7864
"95627",38.72936,-122.00959,"Johto","Noctowl","Type B",2476
"62863",38.41575,-87.85526,"Paldea","Fuecoco","Type C",3966
"95949",39.102,-121.13343,"Johto","Bellossom","Type A",8193
"13136",42.60368,-75.84582,"Galar","Rolycoly","Type A",6832
"30678",33.44626,-83.07598,"Alola","Stufful","Type B",8370
"06263",41.83738,-71.90444,"Galar","Skwovet","Type A",8053
"23954",37.10893,-78.38705,"Paldea","Veluza","Type B",2031
"78147",29.07375,-98.08017,"Kalos","Spritzee","Type B",2841
"81430",38.04013,-108.05764,"Hoenn","Shelgon","Type A",2752
"16344",41.47045,-79.684,"Paldea","Chi-Yu","Type C",3003
"26411",39.18078,-80.70723,"Paldea","Brute Bonnet","Type C",7277
"62288",37.99267,-89.69106,"Unova","Litwick","Type A",6675
"12123",42.52239,-73.60636,"Galar","Dracovish","Type C",9241
"44881",40.8703,-82.87687,"Paldea","Greavard","Type B",9099
"30461",32.5072,-81.71941,"Alola","Salandit","Type C",6843
"31220",32.87813,-83.8209,"Alola","Guzzlord","Type B",1889
"44418",41.30692,-80.60465,"Paldea","Naclstack","Type C",3554
"58758",47.76643,-100.10424,"Sinnoh","Rotom","Type A",9154
"72444",36.4266,-90.86106,"Unova","Palpitoad","Type B",5423
"28523",35.20662,-77.29541,"Paldea","Lechonk","Type C",5576
"77445",30.09562,-96.06247,"Kalos","Phantump","Type C",5337
"07878",40.87152,-74.47826,"Galar","Cramorant","Type C",6791
"64701",38.62053,-94.3378,"Unova","Sawk","Type A",5238
"95563",40.84248,-123.51225,"Johto","Remoraid","Type C",7309
"77445",30.09562,-96.06247,"Kalos","Talonflame","Type C",3363
"68058",41.00842,-96.2483,"Sinnoh","Kricketot","Type B",6587
"22192",38.68358,-77.31821,"Paldea","Skeledirge","Type C",2766
"05829",44.95349,-72.0759,"Galar","Grapploct","Type B",6844
"08012",39.78409,-75.05586,"Galar","Wooloo","Type C",5840
"76559",31.07987,-97.61079,"Kalos","Inkay","Type C",6489
"68381",40.07979,-96.48176,"Unova","Reshiram","Type A",1047
"37692",36.18456,-82.30413,"Paldea","Pecharunt","Type C",7404
"98238",48.33563,-122.34444,"Kanto","Moltres","Type A",5280
"62443",38.95397,-88.62902,"Unova","Tranquill","Type A",6878
"95404",38.46488,-122.65709,"Johto","Azumarill","Type B",3155
"12413",42.31338,-74.02628,"Galar","Dragapult","Type C",5250
"51015",42.33936,-96.08107,"Sinnoh","Bastiodon","Type A",2987
"67446",39.47442,-98.32363,"Unova","Simisage","Type B",5523
"62443",38.95397,-88.62902,"Unova","Darumaka","Type A",2757
"50127",41.78122,-93.21129,"Sinnoh","Croagunk","Type B",1337
"35022",33.33107,-86.95959,"Alola","Mudsdale","Type A",7380
"76904",31.28844,-100.41695,"Kalos","Tyrantrum","Type B",1667
"80017",39.69914,-104.7735,"Hoenn","Beldum","Type A",9574
"30678",33.44626,-83.07598,"Alola","Torracat","Type C",6892
"80475",39.43012,-105.59234,"Hoenn","Altaria","Type B",5050
"44418",41.30692,-80.60465,"Paldea","Naclstack","Type A",5520
"67124",37.63644,-98.77236,"Unova","Rufflet","Type B",6348
"87035",34.95116,-105.90273,"Hoenn","Shuppet","Type A",2399
"67351",37.14066,-95.56698,"Unova","Whimsicott","Type C",9568
"11509",40.58872,-73.7286,"Galar","Thievul","Type C",8139
"93285",35.72233,-118.50871,"Johto","Lugia","Type B",3710
"13136",42.60368,-75.84582,"Galar","Eldegoss","Type C",8733
"13136",42.60368,-75.84582,"Galar","Wooloo","Type C",3813
"87035",34.95116,-105.90273,"Hoenn","Shuppet","Type C",7492
"40216",38.18707,-85.83738,"Paldea","Houndstone","Type A",5608
"50127",41.78122,-93.21129,"Sinnoh","Mime Jr.","Type A",5173
"11509",40.58872,-73.7286,"Galar","Thievul","Type A",7120
"78565",26.24453,-98.561,"Kalos","Amaura","Type C",9040
"38901",33.76275,-89.79799,"Unova","Throh","Type A",8333
"37617",36.53155,-82.37248,"Paldea","Iron Bundle","Type B",2755
"59713",46.67973,-112.61228,"Kanto","Omanyte","Type A",1020
"49755",45.63886,-84.80524,"Paldea","Arctibax","Type A",1727
"59724",44.67716,-112.79359,"Kanto","Pidgeotto","Type B",7859
"72201",34.74725,-92.28053,"Unova","Munna","Type C",2378
"48098",42.59903,-83.1789,"Paldea","Bombirdier","Type A",5005
"76904",31.28844,-100.41695,"Kalos","Pyroar","Type A",4855
"62207",38.58327,-90.12544,"Unova","Tepig","Type A",1095
"48098",42.59903,-83.1789,"Paldea","Tinkatink","Type C",7950
"42516",37.22247,-84.77881,"Paldea","Lechonk","Type C",1234
"74849",34.9846,-96.73597,"Unova","Braviary","Type C",5848
"27410",36.11826,-79.89223,"Paldea","Iron Bundle","Type C",6416
"34604",28.4781,-82.43322,"Alola","Grubbin","Type A",8254
"74753",33.90777,-96.53496,"Unova","Klinklang","Type C",3694
"39664",31.32894,-90.68252,"Alola","Primarina","Type A",1527
"76904",31.28844,-100.41695,"Kalos","Tyrantrum","Type A",8039
"74058",36.35499,-96.75909,"Unova","Solosis","Type A",4852
"77445",30.09562,-96.06247,"Kalos","Phantump","Type B",9199
"72201",34.74725,-92.28053,"Unova","Munna","Type A",5637
"78108",29.57354,-98.22068,"Kalos","Hawlucha","Type A",1478
"78375",27.38282,-98.16351,"Kalos","Avalugg","Type C",5601
"52411",42.05093,-91.72723,"Sinnoh","Mothim","Type B",4315
"57541",43.60001,-99.90895,"Sinnoh","Piplup","Type B",7686
"27410",36.11826,-79.89223,"Paldea","Raging Bolt","Type C",5315
"56373",45.85456,-94.23789,"Sinnoh","Drifloon","Type A",8694
"24350",36.81109,-81.01757,"Paldea","Charcadet","Type B",7052
"01092",42.20008,-72.23715,"Galar","Rillaboom","Type B",3770
"44111",41.45775,-81.78986,"Paldea","Pawmo","Type C",2371
"38901",33.76275,-89.79799,"Unova","Emolga","Type A",8018
"95404",38.46488,-122.65709,"Johto","Smoochum","Type B",2410
"70420",30.48767,-89.95907,"Alola","Xurkitree","Type B",9906
"48067",42.49053,-83.13786,"Paldea","Maschiff","Type B",8714
"47573",38.74418,-87.322,"Paldea","Flittle","Type A",7631
"48098",42.59903,-83.1789,"Paldea","Tinkatink","Type B",5360
"50127",41.78122,-93.21129,"Sinnoh","Mime Jr.","Type C",2890
"13348",42.70202,-75.06398,"Galar","Drizzile","Type C",1321
"41141",38.54381,-83.13357,"Paldea","Cyclizar","Type B",5622
"74058",36.35499,-96.75909,"Unova","Excadrill","Type C",7747
"45424",39.84695,-84.11032,"Paldea","Pecharunt","Type C",9986
"83854",47.7267,-116.97511,"Kanto","Goldeen","Type B",9416
"59724",44.67716,-112.79359,"Kanto","Metapod","Type C",4711
"64701",38.62053,-94.3378,"Unova","Drilbur","Type B",3047
"13348",42.70202,-75.06398,"Galar","Thievul","Type B",7237
"46732",41.37697,-85.62169,"Paldea","Veluza","Type C",6632
"68950",40.45586,-98.66413,"Unova","Joltik","Type C",1317
"89044",35.93986,-115.05632,"Johto","Hoothoot","Type A",3699
"33983",27.00712,-82.01508,"Alola","Bewear","Type C",4573
"17076",40.62084,-77.30758,"Paldea","Klawf","Type A",2405
"53143",42.56109,-87.83038,"Sinnoh","Glameow","Type B",6707
"82945",41.72007,-108.9389,"Hoenn","Metang","Type C",2140
"22576",37.69398,-76.43277,"Galar","Dottler","Type B",2366
"58758",47.76643,-100.10424,"Sinnoh","Pachirisu","Type B",3902
"63601",37.8212,-90.5439,"Unova","Sandile","Type B",9276
"68058",41.00842,-96.2483,"Sinnoh","Kricketot","Type A",3896
"22312",38.81685,-77.15372,"Paldea","Okidogi","Type A",9256
"21840",38.25814,-75.89276,"Galar","Raboot","Type C",2562
"34453",28.89276,-82.33663,"Alola","Kommo-o","Type C",1197
"06263",41.83738,-71.90444,"Galar","Arctovish","Type B",3708
"35022",33.33107,-86.95959,"Alola","Naganadel","Type B",7639
"93528",35.37194,-117.64193,"Johto","Scizor","Type C",3349
"22312",38.81685,-77.15372,"Paldea","Houndstone","Type A",9124
"28523",35.20662,-77.29541,"Paldea","Fidough","Type B",3078
"47243",38.67214,-85.48177,"Paldea","Okidogi","Type C",7993
"48098",42.59903,-83.1789,"Paldea","Bombirdier","Type B",6560
"62443",38.95397,-88.62902,"Unova","Tranquill","Type C",1555
"38901",33.76275,-89.79799,"Unova","Emolga","Type B",3501
"62668",39.57474,-90.23667,"Unova","Simipour","Type A",6628
"01360",42.67575,-72.446,"Galar","Dreepy","Type A",5883
"34453",28.89276,-82.33663,"Alola","Passimian","Type A",7463
"80475",39.43012,-105.59234,"Hoenn","Spoink","Type B",8265
"44418",41.30692,-80.60465,"Paldea","Scream Tail","Type C",8271
"22312",38.81685,-77.15372,"Paldea","Toedscool","Type B",3772
"95627",38.72936,-122.00959,"Johto","Delibird","Type C",8667
"30461",32.5072,-81.71941,"Alola","Gumshoos","Type A",5811
"85742",32.3898,-111.05113,"Hoenn","Azurill","Type A",7876
"62207",38.58327,-90.12544,"Unova","Venipede","Type C",8995
"43540",41.69545,-83.943,"Paldea","Bellibolt","Type A",3465
"78044",27.75613,-99.22748,"Kalos","Vivillon","Type C",5575
"50127",41.78122,-93.21129,"Sinnoh","Gabite","Type C",1795
"77445",30.09562,-96.06247,"Kalos","Vivillon","Type B",6535
"53143",42.56109,-87.83038,"Sinnoh","Vespiquen","Type A",6945
"28391",35.03045,-78.70009,"Paldea","Slither Wing","Type A",1922
"43540",41.69545,-83.943,"Paldea","Nymble","Type A",9467
"13348",42.70202,-75.06398,"Galar","Thievul","Type C",5382
"11509",40.58872,-73.7286,"Galar","Arrokuda","Type A",9167
"28214",35.27177,-80.96847,"Paldea","Iron Treads","Type A",8445
"26763",39.4789,-78.69316,"Paldea","Clodsire","Type A",4018
"32352",30.6499,-84.58535,"Alola","Tapu Koko","Type C",8671
"77445",30.09562,-96.06247,"Kalos","Vivillon","Type A",9228
"04772",47.23375,-68.32732,"Galar","Cursola","Type C",5372
"41141",38.54381,-83.13357,"Paldea","Sinistcha","Type B",6410
"47573",38.74418,-87.322,"Paldea","Flittle","Type B",6794
"31562",30.47778,-82.10755,"Alola","Gumshoos","Type B",6463
"41141",38.54381,-83.13357,"Paldea","Iron Valiant","Type A",4034
"72444",36.4266,-90.86106,"Unova","Oshawott","Type C",5603
"35022",33.33107,-86.95959,"Alola","Naganadel","Type A",8035
"22312",38.81685,-77.15372,"Paldea","Houndstone","Type C",5743
"12413",42.31338,-74.02628,"Galar","Centiskorch","Type C",7276
"61753",40.63568,-88.78883,"Unova","Simisage","Type B",4428
"95563",40.84248,-123.51225,"Johto","Remoraid","Type B",2993
"98238",48.33563,-122.34444,"Kanto","Spearow","Type C",9069
"93528",35.37194,-117.64193,"Johto","Scizor","Type A",8927
"64473",39.97606,-95.08446,"Unova","Patrat","Type A",7588
"17888",40.81931,-76.37306,"Galar","Applin","Type A",2318
"17322",39.85548,-76.53513,"Galar","Inteleon","Type B",4990
"62262",38.9371,-89.26916,"Unova","Victini","Type C",6875
"48067",42.49053,-83.13786,"Paldea","Veluza","Type B",6330
"50578",43.30081,-94.54775,"Sinnoh","Gliscor","Type C",1717
"62262",38.9371,-89.26916,"Unova","Victini","Type B",4816
"62207",38.58327,-90.12544,"Unova","Kyurem","Type B",6319
"48067",42.49053,-83.13786,"Paldea","Veluza","Type C",7320
"81430",38.04013,-108.05764,"Hoenn","Cradily","Type C",7738
"50578",43.30081,-94.54775,"Sinnoh","Gliscor","Type B",5194
"28214",35.27177,-80.96847,"Paldea","Iron Boulder","Type A",8061
"80475",39.43012,-105.59234,"Hoenn","Gardevoir","Type A",4879
"31220",32.87813,-83.8209,"Alola","Guzzlord","Type C",4890
"62443",38.95397,-88.62902,"Unova","Alomomola","Type B",1193
"30461",32.5072,-81.71941,"Alola","Blacephalon","Type C",3554
"59713",46.67973,-112.61228,"Kanto","Venomoth","Type A",6604
"80475",39.43012,-105.59234,"Hoenn","Altaria","Type C",3475
"92161",32.8742,-117.23159,"Johto","Entei","Type C",8865
"25154",38.11572,-81.70249,"Paldea","Orthworm","Type A",5841
"59724",44.67716,-112.79359,"Kanto","Nidoking","Type A",4495
"34453",28.89276,-82.33663,"Alola","Kommo-o","Type A",2999
"28523",35.20662,-77.29541,"Paldea","Fidough","Type A",6487
"62443",38.95397,-88.62902,"Unova","Darumaka","Type C",6748
"48067",42.49053,-83.13786,"Paldea","Revavroom","Type B",6076
"47573",38.74418,-87.322,"Paldea","Quaxwell","Type A",5341
"64155",39.28031,-94.56801,"Unova","Pansear","Type B",5492
"95563",40.84248,-123.51225,"Johto","Stantler","Type A",6601
"84629",39.76574,-111.44752,"Hoenn","Linoone","Type B",4432
"26411",39.18078,-80.70723,"Paldea","Finizen","Type C",1411
"16321",41.56835,-79.40084,"Paldea","Veluza","Type A",7723
"58458",46.36921,-98.29257,"Sinnoh","Manaphy","Type A",8823
"13774",41.96192,-75.17283,"Galar","Sandaconda","Type A",3183
"38108",35.1763,-89.96382,"Unova","Garbodor","Type C",8117
"17322",39.85548,-76.53513,"Galar","Inteleon","Type C",7659
"28214",35.27177,-80.96847,"Paldea","Iron Boulder","Type B",8110
"33983",27.00712,-82.01508,"Alola","Silvally","Type C",8885
"61753",40.63568,-88.78883,"Unova","Cobalion","Type C",1120
"78375",27.38282,-98.16351,"Kalos","Flabébé","Type A",8030
"98821",47.55199,-120.56155,"Kanto","Mankey","Type B",7357
"27410",36.11826,-79.89223,"Paldea","Iron Bundle","Type B",6163
"12123",42.52239,-73.60636,"Galar","Silicobra","Type B",5035
"54107",44.70068,-88.44436,"Sinnoh","Bibarel","Type B",5442
"33983",27.00712,-82.01508,"Alola","Bewear","Type A",5299
"57541",43.60001,-99.90895,"Sinnoh","Pachirisu","Type A",8012
"57541",43.60001,-99.90895,"Sinnoh","Phione","Type B",4979
"41759",37.23211,-83.02521,"Paldea","Meowscarada","Type C",2766
"13136",42.60368,-75.84582,"Galar","Eldegoss","Type A",7889
"59724",44.67716,-112.79359,"Kanto","Pidgeotto","Type A",9363
"19535",40.3394,-75.79537,"Galar","Spectrier","Type C",5785
"68950",40.45586,-98.66413,"Unova","Munna","Type C",5427
"98829",48.31103,-119.80822,"Kanto","Machamp","Type C",8303
"31562",30.47778,-82.10755,"Alola","Zygarde10% Forme","Type C",8125
"05829",44.95349,-72.0759,"Galar","Appletun","Type A",5001
"62288",37.99267,-89.69106,"Unova","Fraxure","Type C",4905
"80475",39.43012,-105.59234,"Hoenn","Spoink","Type A",7388
"37692",36.18456,-82.30413,"Paldea","Pecharunt","Type B",3527
"26411",39.18078,-80.70723,"Paldea","Finizen","Type B",1928
"38901",33.76275,-89.79799,"Unova","Throh","Type B",1834
"01360",42.67575,-72.446,"Galar","Stonjourner","Type B",5736
"64840",37.01826,-94.33536,"Unova","Sewaddle","Type A",4573
"79835",31.93555,-106.59491,"Hoenn","Ludicolo","Type A",9095
"13136",42.60368,-75.84582,"Galar","Barraskewda","Type C",1643
"97484",42.93373,-122.84585,"Johto","Suicune","Type A",5775
"62288",37.99267,-89.69106,"Unova","Fraxure","Type B",5664
"70639",30.98235,-93.49793,"Kalos","Chespin","Type A",7453
"68058",41.00842,-96.2483,"Sinnoh","Bonsly","Type C",6425
"11509",40.58872,-73.7286,"Galar","Runerigus","Type A",8457
"95404",38.46488,-122.65709,"Johto","Smoochum","Type C",1353
"01757",42.15723,-71.51978,"Galar","Chewtle","Type C",4391
"89044",35.93986,-115.05632,"Johto","Hoothoot","Type B",3242
"56051",43.53649,-93.70868,"Sinnoh","Arceus","Type B",5678
"92161",32.8742,-117.23159,"Johto","Entei","Type B",7864
"68950",40.45586,-98.66413,"Unova","Blitzle","Type A",4202
"45424",39.84695,-84.11032,"Paldea","Pecharunt","Type B",7334
"22192",38.68358,-77.31821,"Paldea","Frigibax","Type B",3444
"87035",34.95116,-105.90273,"Hoenn","Crawdaunt","Type C",9548
"22312",38.81685,-77.15372,"Paldea","Toedscool","Type C",3891
"45424",39.84695,-84.11032,"Paldea","Bombirdier","Type B",9374
"17076",40.62084,-77.30758,"Paldea","Hydrapple","Type C",2471
"16321",41.56835,-79.40084,"Paldea","Veluza","Type C",5188
"77506",29.71786,-95.19018,"Kalos","Phantump","Type A",9023
"46732",41.37697,-85.62169,"Paldea","Lokix","Type B",4102
"32352",30.6499,-84.58535,"Alola","Torracat","Type C",3799
"16344",41.47045,-79.684,"Paldea","Walking Wake","Type C",8491
"54107",44.70068,-88.44436,"Sinnoh","Froslass","Type B",7395
"28391",35.03045,-78.70009,"Paldea","Dondozo","Type C",8601
"41141",38.54381,-83.13357,"Paldea","Cyclizar","Type C",9093
"74753",33.90777,-96.53496,"Unova","Joltik","Type C",4482
"59713",46.67973,-112.61228,"Kanto","Fearow","Type B",2520
"13774",41.96192,-75.17283,"Galar","Arrokuda","Type C",8239
"81430",38.04013,-108.05764,"Hoenn","Beldum","Type A",9151
"79835",31.93555,-106.59491,"Hoenn","Ludicolo","Type B",7650
"63601",37.8212,-90.5439,"Unova","Oshawott","Type B",1044
"70420",30.48767,-89.95907,"Alola","Torracat","Type A",7339
"43540",41.69545,-83.943,"Paldea","Fuecoco","Type B",5794
"58458",46.36921,-98.29257,"Sinnoh","Azelf","Type C",8817
"36069",32.0905,-86.16008,"Alola","Type: Null","Type B",5681
"01757",42.15723,-71.51978,"Galar","Hattrem","Type C",6422
"13774",41.96192,-75.17283,"Galar","Arrokuda","Type B",2700
"92161",32.8742,-117.23159,"Johto","Gligar","Type B",7434
"38108",35.1763,-89.96382,"Unova","Garbodor","Type B",9421
"43540",41.69545,-83.943,"Paldea","Glimmet","Type A",6084
"68058",41.00842,-96.2483,"Sinnoh","Froslass","Type A",3283
"04622",44.75555,-67.95143,"Galar","Raboot","Type A",2034
"56373",45.85456,-94.23789,"Sinnoh","Drifloon","Type B",1357
"67351",37.14066,-95.56698,"Unova","Whimsicott","Type A",9901
"62262",38.9371,-89.26916,"Unova","Chandelure","Type C",4920
"10025",40.79825,-73.96831,"Galar","Barraskewda","Type A",9887
"55970",43.59681,-92.83118,"Sinnoh","Happiny","Type B",6628
"55970",43.59681,-92.83118,"Sinnoh","Carnivine","Type A",7735
"13774",41.96192,-75.17283,"Galar","Sandaconda","Type B",6346
"77506",29.71786,-95.19018,"Kalos","Bergmite","Type B",6433
"44111",41.45775,-81.78986,"Paldea","Crocalor","Type C",7490
"62668",39.57474,-90.23667,"Unova","Simipour","Type B",6044
"61753",40.63568,-88.78883,"Unova","Simisage","Type C",8612
"43540",41.69545,-83.943,"Paldea","Nymble","Type C",9856
"42516",37.22247,-84.77881,"Paldea","Capsakid","Type C",9176
"70669",30.24216,-93.27731,"Kalos","Florges","Type A",6892
"70639",30.98235,-93.49793,"Kalos","Froakie","Type B",8401
"44111",41.45775,-81.78986,"Paldea","Roaring Moon","Type C",5243
"13136",42.60368,-75.84582,"Galar","Wooloo","Type A",6298
"71654",33.62476,-91.37234,"Unova","Joltik","Type A",1783
"77506",29.71786,-95.19018,"Kalos","Phantump","Type C",7253
"79835",31.93555,-106.59491,"Hoenn","Vigoroth","Type C",3820
"59724",44.67716,-112.79359,"Kanto","Nidoking","Type C",2081
"27410",36.11826,-79.89223,"Paldea","Iron Bundle","Type A",4927
"22312",38.81685,-77.15372,"Paldea","Archaludon","Type B",2691
"36069",32.0905,-86.16008,"Alola","Type: Null","Type C",6846
"48067",42.49053,-83.13786,"Paldea","Revavroom","Type C",5862
"76904",31.28844,-100.41695,"Kalos","Pyroar","Type C",1304
"26411",39.18078,-80.70723,"Paldea","Gholdengo","Type C",3036
"89044",35.93986,-115.05632,"Johto","Hitmontop","Type A",4732
"12123",42.52239,-73.60636,"Galar","Dracozolt","Type B",8306
"78375",27.38282,-98.16351,"Kalos","Spewpa","Type B",3128
"42516",37.22247,-84.77881,"Paldea","Wo-Chien","Type C",2386
"48098",42.59903,-83.1789,"Paldea","Farigiraf","Type B",6985
"93528",35.37194,-117.64193,"Johto","Corsola","Type C",4813
"01757",42.15723,-71.51978,"Galar","Chewtle","Type A",6163
"70669",30.24216,-93.27731,"Kalos","Xerneas","Type B",8156
"64840",37.01826,-94.33536,"Unova","Sewaddle","Type B",1341
"81430",38.04013,-108.05764,"Hoenn","Beldum","Type C",2639
"19535",40.3394,-75.79537,"Galar","Grapploct","Type C",6734
"12123",42.52239,-73.60636,"Galar","Dubwool","Type B",1440
"33983",27.00712,-82.01508,"Alola","Bewear","Type B",9424
"78147",29.07375,-98.08017,"Kalos","Spritzee","Type A",8046
"50127",41.78122,-93.21129,"Sinnoh","Gliscor","Type B",7215
"20714",38.71813,-76.53987,"Galar","Sneasler","Type B",8713
"08046",40.02787,-74.88709,"Galar","Appletun","Type B",4791
"24350",36.81109,-81.01757,"Paldea","Brute Bonnet","Type B",1928
"62443",38.95397,-88.62902,"Unova","Tranquill","Type B",7038
"17076",40.62084,-77.30758,"Paldea","Klawf","Type B",2954
"58758",47.76643,-100.10424,"Sinnoh","Rotom","Type C",7485
"30678",33.44626,-83.07598,"Alola","Bewear","Type C",8898
"87035",34.95116,-105.90273,"Hoenn","Shuppet","Type B",2551
"46732",41.37697,-85.62169,"Paldea","Pawmo","Type C",9220
"36069",32.0905,-86.16008,"Alola","Comfey","Type C",8672
"95627",38.72936,-122.00959,"Johto","Noctowl","Type C",9456
"39664",31.32894,-90.68252,"Alola","Zygarde10% Forme","Type C",9869
"19535",40.3394,-75.79537,"Galar","Grapploct","Type A",7721
"64701",38.62053,-94.3378,"Unova","Sawk","Type B",5046
"43540",41.69545,-83.943,"Paldea","Glimmet","Type B",4014
"43540",41.69545,-83.943,"Paldea","Glimmet","Type C",5306
"04622",44.75555,-67.95143,"Galar","Runerigus","Type A",1123
"36069",32.0905,-86.16008,"Alola","Solgaleo","Type C",7118
"19535",40.3394,-75.79537,"Galar","Spectrier","Type B",8245
"64155",39.28031,-94.56801,"Unova","Scolipede","Type B",8193
"12413",42.31338,-74.02628,"Galar","Centiskorch","Type A",1607
"87552",35.67026,-105.61382,"Hoenn","Carvanha","Type B",2615
"53143",42.56109,-87.83038,"Sinnoh","Vespiquen","Type B",9492
"50127",41.78122,-93.21129,"Sinnoh","Gliscor","Type C",3769
"85706",32.14783,-110.93541,"Hoenn","Blaziken","Type A",1740
"19535",40.3394,-75.79537,"Galar","Orbeetle","Type C",6793
"48067",42.49053,-83.13786,"Paldea","Veluza","Type A",3791
"54107",44.70068,-88.44436,"Sinnoh","Bibarel","Type A",1962
"50127",41.78122,-93.21129,"Sinnoh","Croagunk","Type A",6937
"82945",41.72007,-108.9389,"Hoenn","Metang","Type B",6274
"24350",36.81109,-81.01757,"Paldea","Capsakid","Type A",3390
"95634",38.9123,-120.69443,"Johto","Sunflora","Type A",5600
"79835",31.93555,-106.59491,"Hoenn","Azurill","Type A",8869
"04622",44.75555,-67.95143,"Galar","Raboot","Type B",2476
"36069",32.0905,-86.16008,"Alola","Solgaleo","Type A",7925
"64701",38.62053,-94.3378,"Unova","Drilbur","Type A",3993
"25978",37.62861,-80.94138,"Paldea","Flutter Mane","Type B",5597
"74753",33.90777,-96.53496,"Unova","Leavanny","Type C",4025
"80017",39.69914,-104.7735,"Hoenn","Beldum","Type B",8307
"46732",41.37697,-85.62169,"Paldea","Pawmo","Type B",2654
"50127",41.78122,-93.21129,"Sinnoh","Croagunk","Type C",7067
"17868",40.95536,-76.63098,"Galar","Flapple","Type C",9431
"76904",31.28844,-100.41695,"Kalos","Slurpuff","Type C",8551
"36069",32.0905,-86.16008,"Alola","Solgaleo","Type B",1000
"46732",41.37697,-85.62169,"Paldea","Veluza","Type A",5928
"35183",33.00675,-86.35706,"Alola","Sandygast","Type C",8308
"17888",40.81931,-76.37306,"Galar","Carkol","Type B",9673
"78375",27.38282,-98.16351,"Kalos","Avalugg","Type B",2767
"22576",37.69398,-76.43277,"Galar","Dottler","Type A",1974
"19535",40.3394,-75.79537,"Galar","Orbeetle","Type B",7475
"44418",41.30692,-80.60465,"Paldea","Naclstack","Type B",5885
"80475",39.43012,-105.59234,"Hoenn","Poochyena","Type A",1700
"93285",35.72233,-118.50871,"Johto","Ho-oh","Type C",5758
"57471",45.40967,-99.31359,"Sinnoh","Skuntank","Type A",9696
"36069",32.0905,-86.16008,"Alola","Tapu Lele","Type B",2319
"51015",42.33936,-96.08107,"Sinnoh","Cherrim","Type B",4318
"12123",42.52239,-73.60636,"Galar","Dubwool","Type A",3330
"29686",34.92858,-83.04541,"Paldea","Garganacl","Type C",2232
"58458",46.36921,-98.29257,"Sinnoh","Manaphy","Type B",4923
"03824",43.11744,-70.91937,"Galar","Centiskorch","Type B",9543
"36069",32.0905,-86.16008,"Alola","Tapu Lele","Type A",5079
"76559",31.07987,-97.61079,"Kalos","Inkay","Type B",3806
"74058",36.35499,-96.75909,"Unova","Stunfisk","Type A",5285
"93528",35.37194,-117.64193,"Johto","Scizor","Type B",9827
"30461",32.5072,-81.71941,"Alola","Gumshoos","Type C",2368
"27410",36.11826,-79.89223,"Paldea","Raging Bolt","Type B",3188
"12123",42.52239,-73.60636,"Galar","Dracovish","Type A",6846
"31562",30.47778,-82.10755,"Alola","Gumshoos","Type C",7428
"01360",42.67575,-72.446,"Galar","Dreepy","Type B",1338
"81430",38.04013,-108.05764,"Hoenn","Cradily","Type B",9353
"70669",30.24216,-93.27731,"Kalos","Xerneas","Type A",1098
"51015",42.33936,-96.08107,"Sinnoh","Bastiodon","Type B",5694
"62288",37.99267,-89.69106,"Unova","Maractus","Type A",7784
"42516",37.22247,-84.77881,"Paldea","Capsakid","Type B",7195
"67216",37.6089,-97.3143,"Unova","Whimsicott","Type B",5116
"78044",27.75613,-99.22748,"Kalos","Clauncher","Type A",5902
"62288",37.99267,-89.69106,"Unova","Swadloon","Type C",8628
"13348",42.70202,-75.06398,"Galar","Thievul","Type A",6292
"04772",47.23375,-68.32732,"Galar","Clobbopus","Type B",8165
"47243",38.67214,-85.48177,"Paldea","Wattrel","Type B",8896
"93285",35.72233,-118.50871,"Johto","Flaaffy","Type A",5429
"45424",39.84695,-84.11032,"Paldea","Bombirdier","Type A",6663
"68950",40.45586,-98.66413,"Unova","Joltik","Type B",4452
"18709",41.28635,-75.89674,"Galar","Pincurchin","Type C",1189
"08046",40.02787,-74.88709,"Galar","Cramorant","Type A",6417
"37692",36.18456,-82.30413,"Paldea","Meowscarada","Type B",9538
"44418",41.30692,-80.60465,"Paldea","Crocalor","Type C",8902
"79835",31.93555,-106.59491,"Hoenn","Vigoroth","Type A",6229
"04622",44.75555,-67.95143,"Galar","Runerigus","Type B",4750
"95404",38.46488,-122.65709,"Johto","Smoochum","Type A",8443
"38901",33.76275,-89.79799,"Unova","Gigalith","Type B",8072
"39664",31.32894,-90.68252,"Alola","Primarina","Type C",7293
"48098",42.59903,-83.1789,"Paldea","Bombirdier","Type C",6332
"97484",42.93373,-122.84585,"Johto","Suicune","Type B",6014
"76904",31.28844,-100.41695,"Kalos","Slurpuff","Type B",8624
"64840",37.01826,-94.33536,"Unova","Lillipup","Type B",2073
"70639",30.98235,-93.49793,"Kalos","Froakie","Type C",5130
"32352",30.6499,-84.58535,"Alola","Torracat","Type B",4700
"98238",48.33563,-122.34444,"Kanto","Vileplume","Type A",9534
"05829",44.95349,-72.0759,"Galar","Appletun","Type B",4294
"33983",27.00712,-82.01508,"Alola","Silvally","Type B",2168
"04772",47.23375,-68.32732,"Galar","Cursola","Type B",8428
"68950",40.45586,-98.66413,"Unova","Munna","Type A",9628
"01360",42.67575,-72.446,"Galar","Dreepy","Type C",1035
"64840",37.01826,-94.33536,"Unova","Lillipup","Type C",7169
"62668",39.57474,-90.23667,"Unova","Simipour","Type C",9948
"80017",39.69914,-104.7735,"Hoenn","Banette","Type B",3525
"06263",41.83738,-71.90444,"Galar","Skwovet","Type B",2786
"29686",34.92858,-83.04541,"Paldea","Rabsca","Type C",4293
"52411",42.05093,-91.72723,"Sinnoh","Mothim","Type C",6672
"56373",45.85456,-94.23789,"Sinnoh","Drapion","Type B",7343
"58458",46.36921,-98.29257,"Sinnoh","Mothim","Type A",1099
"98238",48.33563,-122.34444,"Kanto","Moltres","Type B",2498
"77445",30.09562,-96.06247,"Kalos","Talonflame","Type A",5861
"19535",40.3394,-75.79537,"Galar","Grapploct","Type B",8856
"25154",38.11572,-81.70249,"Paldea","Iron Hands","Type C",2854
"36069",32.0905,-86.16008,"Alola","Comfey","Type A",1186
"42516",37.22247,-84.77881,"Paldea","Lechonk","Type A",6403
"29686",34.92858,-83.04541,"Paldea","Farigiraf","Type A",8279
"83854",47.7267,-116.97511,"Kanto","Nidorina","Type B",8631
"24350",36.81109,-81.01757,"Paldea","Charcadet","Type A",1104
"29686",34.92858,-83.04541,"Paldea","Rabsca","Type B",9471
"48098",42.59903,-83.1789,"Paldea","Farigiraf","Type A",4509
"49755",45.63886,-84.80524,"Paldea","Arctibax","Type C",2333
"80017",39.69914,-104.7735,"Hoenn","Banette","Type A",4976
"16344",41.47045,-79.684,"Paldea","Cetoddle","Type C",8813
"71654",33.62476,-91.37234,"Unova","Zoroark","Type C",8336
"62288",37.99267,-89.69106,"Unova","Swadloon","Type A",9681
"10025",40.79825,-73.96831,"Galar","Barraskewda","Type B",7401
"64701",38.62053,-94.3378,"Unova","Drilbur","Type C",8402
"92161",32.8742,-117.23159,"Johto","Entei","Type A",5374
"62262",38.9371,-89.26916,"Unova","Chandelure","Type A",8568
"10455",40.8148,-73.90862,"Galar","Raboot","Type C",2706
"21840",38.25814,-75.89276,"Galar","Obstagoon","Type A",6173
"56650",47.9979,-94.56351,"Sinnoh","Bronzor","Type B",1654
"70669",30.24216,-93.27731,"Kalos","Quilladin","Type B",2191
"17888",40.81931,-76.37306,"Galar","Drizzile","Type C",5202
"72201",34.74725,-92.28053,"Unova","Gothitelle","Type C",3937
"79835",31.93555,-106.59491,"Hoenn","Vigoroth","Type B",8762
"53143",42.56109,-87.83038,"Sinnoh","Glameow","Type C",3251
"62207",38.58327,-90.12544,"Unova","Venipede","Type B",7932
"29849",33.10168,-81.23641,"Alola","Buzzwole","Type C",2511
"53817",42.94028,-90.97234,"Sinnoh","Spiritomb","Type A",8079
"74753",33.90777,-96.53496,"Unova","Klinklang","Type B",7338
"95404",38.46488,-122.65709,"Johto","Azumarill","Type C",1013
"26411",39.18078,-80.70723,"Paldea","Brute Bonnet","Type A",5974
"70420",30.48767,-89.95907,"Alola","Torracat","Type C",2614
"70669",30.24216,-93.27731,"Kalos","Quilladin","Type C",5657
"12123",42.52239,-73.60636,"Galar","Dracozolt","Type C",9712
"59713",46.67973,-112.61228,"Kanto","Venomoth","Type B",3158
"17888",40.81931,-76.37306,"Galar","Applin","Type C",3200
"44418",41.30692,-80.60465,"Paldea","Toedscool","Type A",5112
"18709",41.28635,-75.89674,"Galar","Hatenna","Type B",2182
"41141",38.54381,-83.13357,"Paldea","Cyclizar","Type A",7212
"28214",35.27177,-80.96847,"Paldea","Iron Treads","Type B",8604
"80017",39.69914,-104.7735,"Hoenn","Beldum","Type C",6203
"87552",35.67026,-105.61382,"Hoenn","Carvanha","Type C",6431
"08012",39.78409,-75.05586,"Galar","Flapple","Type B",6767
"77445",30.09562,-96.06247,"Kalos","Frogadier","Type B",1206
"84629",39.76574,-111.44752,"Hoenn","Minun","Type C",6548
"89044",35.93986,-115.05632,"Johto","Hoothoot","Type C",9948
"32352",30.6499,-84.58535,"Alola","Cosmog","Type C",1578
"17076",40.62084,-77.30758,"Paldea","Hydrapple","Type A",7858
"74849",34.9846,-96.73597,"Unova","Braviary","Type A",8029
"28214",35.27177,-80.96847,"Paldea","Tandemaus","Type B",5611
"78375",27.38282,-98.16351,"Kalos","Avalugg","Type B",1836
"67124",37.63644,-98.77236,"Unova","Rufflet","Type A",3436
"44881",40.8703,-82.87687,"Paldea","Greavard","Type C",7810
"04772",47.23375,-68.32732,"Galar","Stonjourner","Type C",9463
"03824",43.11744,-70.91937,"Galar","Centiskorch","Type C",5299
"62207",38.58327,-90.12544,"Unova","Tepig","Type C",2830
"85706",32.14783,-110.93541,"Hoenn","Seedot","Type B",7898
"92161",32.8742,-117.23159,"Johto","Gligar","Type A",3128
"30461",32.5072,-81.71941,"Alola","Salandit","Type B",9158
"32352",30.6499,-84.58535,"Alola","Meltan","Type A",5150
"39664",31.32894,-90.68252,"Alola","Pyukumuku","Type A",1285
"54513",45.58246,-90.11986,"Sinnoh","Bibarel","Type A",1791
"85706",32.14783,-110.93541,"Hoenn","Seedot","Type C",4747
